[
{"name": "Abbévillers", "lat": 47.427, "lon": 6.922},
{"name": "Aibre", "lat": 47.552, "lon": 6.698},
{"name": "Allenjoie", "lat": 47.706, "lon": 6.394},
{"name": "Allondans", "lat": 47.706, "lon": 6.394},
{"name": "Anteuil", "lat": 47.582, "lon": 6.521},
{"name": "Appenans", "lat": 47.657, "lon": 6.413},
{"name": "Arbouans", "lat": 47.706, "lon": 6.394},
{"name": "Arcey", "lat": 47.706, "lon": 6.394},
{"name": "Audincourt", "lat": 47.803, "lon": 7.267},
{"name": "Autechaux", "lat": 47.706, "lon": 6.394},
{"name": "Autechaux-Roide", "lat": 47.706, "lon": 6.394},
{"name": "Badevel", "lat": 47.706, "lon": 6.394},
{"name": "Bart", "lat": 47.706, "lon": 6.394},
{"name": "Bavans", "lat": 47.706, "lon": 6.394},
{"name": "Berche", "lat": 47.706, "lon": 6.394},
{"name": "Bethoncourt", "lat": 47.814, "lon": 7.129},
{"name": "Beutal", "lat": 47.706, "lon": 6.394},
{"name": "Blamont", "lat": 47.536, "lon": 6.653},
{"name": "Blussangeaux", "lat": 47.706, "lon": 6.394},
{"name": "Blussans", "lat": 47.706, "lon": 6.394},
{"name": "Bondeval", "lat": 47.706, "lon": 6.394},
{"name": "Bourguignon", "lat": 47.706, "lon": 6.394},
{"name": "Bretigney", "lat": 47.706, "lon": 6.394},
{"name": "Brognard", "lat": 47.706, "lon": 6.394},
{"name": "Chazot", "lat": 47.706, "lon": 6.394},
{"name": "Pays-de-Clerval", "lat": 47.706, "lon": 6.394},
{"name": "Colombier-Fontaine", "lat": 47.706, "lon": 6.394},
{"name": "Courcelles-lès-Montbéliard", "lat": 47.706, "lon": 6.394},
{"name": "Crosey-le-Grand", "lat": 47.706, "lon": 6.394},
{"name": "Dambelin", "lat": 47.706, "lon": 6.394},
{"name": "Dambenois", "lat": 47.706, "lon": 6.394},
{"name": "Dampierre-les-Bois", "lat": 47.706, "lon": 6.394},
{"name": "Dampierre-sur-le-Doubs", "lat": 47.706, "lon": 6.394},
{"name": "Dampjoux", "lat": 47.706, "lon": 6.394},
{"name": "Dannemarie", "lat": 47.706, "lon": 6.394},
{"name": "Dasle", "lat": 47.706, "lon": 6.394},
{"name": "Désandans", "lat": 47.706, "lon": 6.394},
{"name": "Dung", "lat": 47.706, "lon": 6.394},
{"name": "Échenans", "lat": 47.706, "lon": 6.394},
{"name": "Écot", "lat": 47.706, "lon": 6.394},
{"name": "Écurcey", "lat": 47.706, "lon": 6.394},
{"name": "Étouvans", "lat": 47.706, "lon": 6.394},
{"name": "Étupes", "lat": 47.814, "lon": 7.102},
{"name": "Exincourt", "lat": 47.806, "lon": 7.235},
{"name": "Faimbe", "lat": 47.706, "lon": 6.394},
{"name": "Fesches-le-Châtel", "lat": 47.706, "lon": 6.394},
{"name": "Fontaine-lès-Clerval", "lat": 47.706, "lon": 6.394},
{"name": "Gémonval", "lat": 47.706, "lon": 6.394},
{"name": "Glay", "lat": 47.706, "lon": 6.394},
{"name": "Goux-lès-Dambelin", "lat": 47.706, "lon": 6.394},
{"name": "Grand-Charmont", "lat": 47.706, "lon": 6.394},
{"name": "Hérimoncourt", "lat": 47.706, "lon": 6.394},
{"name": "L'Hôpital-Saint-Lieffroy", "lat": 47.706, "lon": 6.394},
{"name": "Hyémondans", "lat": 47.706, "lon": 6.394},
{"name": "L'Isle-sur-le-Doubs", "lat": 47.706, "lon": 6.394},
{"name": "Issans", "lat": 47.706, "lon": 6.394},
{"name": "Laire", "lat": 47.706, "lon": 6.394},
{"name": "Lanthenans", "lat": 47.706, "lon": 6.394},
{"name": "Longevelle-sur-Doubs", "lat": 47.706, "lon": 6.394},
{"name": "Lougres", "lat": 47.706, "lon": 6.394},
{"name": "Luxiol", "lat": 47.706, "lon": 6.394},
{"name": "Mandeure", "lat": 47.806, "lon": 7.235},
{"name": "Marvelise", "lat": 47.706, "lon": 6.394},
{"name": "Mathay", "lat": 47.706, "lon": 6.394},
{"name": "Médière", "lat": 47.706, "lon": 6.394},
{"name": "Meslières", "lat": 47.706, "lon": 6.394},
{"name": "Montbéliard", "lat": 47.790, "lon": 7.303},
{"name": "Montenois", "lat": 47.706, "lon": 6.394},
{"name": "Neuchâtel-Urtière", "lat": 47.706, "lon": 6.394},
{"name": "Noirefontaine", "lat": 47.706, "lon": 6.394},
{"name": "Nommay", "lat": 47.800, "lon": 7.271},
{"name": "Onans", "lat": 47.706, "lon": 6.394},
{"name": "Orve", "lat": 47.706, "lon": 6.394},
{"name": "Pierrefontaine-lès-Blamont", "lat": 47.706, "lon": 6.394},
{"name": "Pompierre-sur-Doubs", "lat": 47.706, "lon": 6.394},
{"name": "Pont-de-Roide-Vermondans", "lat": 47.706, "lon": 6.394},
{"name": "Présentevillers", "lat": 47.706, "lon": 6.394},
{"name": "La Prétière", "lat": 47.706, "lon": 6.394},
{"name": "Rang", "lat": 47.706, "lon": 6.394},
{"name": "Raynans", "lat": 47.706, "lon": 6.394},
{"name": "Rémondans-Vaivre", "lat": 47.706, "lon": 6.394},
{"name": "Roches-lès-Blamont", "lat": 47.706, "lon": 6.394},
{"name": "Saint-Georges-Armont", "lat": 47.706, "lon": 6.394},
{"name": "Saint-Julien-lès-Montbéliard", "lat": 47.706, "lon": 6.394},
{"name": "Sainte-Marie", "lat": 47.706, "lon": 6.394},
{"name": "Saint-Maurice-Colombier", "lat": 47.706, "lon": 6.394},
{"name": "Sainte-Suzanne", "lat": 47.706, "lon": 6.394},
{"name": "Seloncourt", "lat": 47.803, "lon": 7.267},
{"name": "Semondans", "lat": 47.706, "lon": 6.394},
{"name": "Sochaux", "lat": 47.792, "lon": 7.231},
{"name": "Sourans", "lat": 47.706, "lon": 6.394},
{"name": "Taillecourt", "lat": 47.706, "lon": 6.394},
{"name": "Thulay", "lat": 47.706, "lon": 6.394},
{"name": "Valentigney", "lat": 47.806, "lon": 7.235},
{"name": "Vandoncourt", "lat": 47.706, "lon": 6.394},
{"name": "Vellerot-lès-Belvoir", "lat": 47.706, "lon": 6.394},
{"name": "Le Vernoy", "lat": 47.706, "lon": 6.394},
{"name": "Vieux-Charmont", "lat": 47.706, "lon": 6.394},
{"name": "Villars-lès-Blamont", "lat": 47.706, "lon": 6.394},
{"name": "Villars-sous-Dampjoux", "lat": 47.706, "lon": 6.394},
{"name": "Villars-sous-Écot", "lat": 47.706, "lon": 6.394},
{"name": "Voillans", "lat": 47.706, "lon": 6.394},
{"name": "Voujeaucourt", "lat": 47.706, "lon": 6.394},
{"name": "Albé", "lat": 48.350, "lon": 7.411},
{"name": "Andlau", "lat": 48.360, "lon": 7.531},
{"name": "Artolsheim", "lat": 48.123, "lon": 7.701},
{"name": "Baldenheim", "lat": 48.197, "lon": 7.571},
{"name": "Barr", "lat": 48.411, "lon": 7.451},
{"name": "Bassemberg", "lat": 48.384, "lon": 7.437},
{"name": "Benfeld", "lat": 48.360, "lon": 7.645},
{"name": "Bernardswiller", "lat": 48.358, "lon": 7.481},
{"name": "Bernardvillé", "lat": 48.292, "lon": 7.424},
{"name": "Bischoffsheim", "lat": 48.195, "lon": 7.588},
{"name": "Blaesheim", "lat": 48.147, "lon": 7.623},
{"name": "Blienschwiller", "lat": 48.409, "lon": 7.396},
{"name": "Bœsenbiesen", "lat": 48.076, "lon": 7.719},
{"name": "Bolsenheim", "lat": 48.103, "lon": 7.675},
{"name": "Bootzheim", "lat": 48.084, "lon": 7.689},
{"name": "Bourgheim", "lat": 48.181, "lon": 7.701},
{"name": "Breitenau", "lat": 48.349, "lon": 7.461},
{"name": "Châtenois", "lat": 48.384, "lon": 7.465},
{"name": "Dambach-la-Ville", "lat": 48.386, "lon": 7.428},
{"name": "Dieffenbach-au-Val", "lat": 48.390, "lon": 7.406},
{"name": "Dieffenthal", "lat": 48.391, "lon": 7.401},
{"name": "Dorlisheim", "lat": 48.291, "lon": 7.447},
{"name": "Duppigheim", "lat": 48.252, "lon": 7.573},
{"name": "Duttlenheim", "lat": 48.222, "lon": 7.555},
{"name": "Ebersheim", "lat": 48.140, "lon": 7.678},
{"name": "Ebersmunster", "lat": 48.194, "lon": 7.616},
{"name": "Eichhoffen", "lat": 48.236, "lon": 7.548},
{"name": "Elsenheim", "lat": 48.156, "lon": 7.647},
{"name": "Epfig", "lat": 48.423, "lon": 7.468},
{"name": "Erstein", "lat": 48.308, "lon": 7.652},
{"name": "Fouchy", "lat": 48.433, "lon": 7.449},
{"name": "Gertwiller", "lat": 48.341, "lon": 7.463},
{"name": "Goxwiller", "lat": 48.292, "lon": 7.520},
{"name": "Griesheim-près-Molsheim", "lat": 48.282, "lon": 7.482},
{"name": "Heidolsheim", "lat": 48.103, "lon": 7.700},
{"name": "Heiligenstein", "lat": 48.387, "lon": 7.423},
{"name": "Herbsheim", "lat": 48.365, "lon": 7.671},
{"name": "Hessenheim", "lat": 48.197, "lon": 7.731},
{"name": "Hilsenheim", "lat": 48.188, "lon": 7.695},
{"name": "Hipsheim", "lat": 48.108, "lon": 7.741},
{"name": "Huttenheim", "lat": 48.179, "lon": 7.720},
{"name": "Ichtratzheim", "lat": 48.194, "lon": 7.630},
{"name": "Innenheim", "lat": 48.157, "lon": 7.666},
{"name": "Itterswiller", "lat": 48.389, "lon": 7.430},
{"name": "Kertzfeld", "lat": 48.302, "lon": 7.627},
{"name": "Kintzheim", "lat": 48.368, "lon": 7.447},
{"name": "Kogenheim", "lat": 48.235, "lon": 7.537},
{"name": "Krautergersheim", "lat": 48.147, "lon": 7.640},
{"name": "Mackenheim", "lat": 48.144, "lon": 7.710},
{"name": "Marckolsheim", "lat": 48.385, "lon": 7.717},
{"name": "Matzenheim", "lat": 48.215, "lon": 7.599},
{"name": "Meistratzheim", "lat": 48.195, "lon": 7.609},
{"name": "Mittelbergheim", "lat": 48.338, "lon": 7.485},
{"name": "Mussig", "lat": 48.333, "lon": 7.597},
{"name": "Muttersholtz", "lat": 48.253, "lon": 7.653},
{"name": "Neubois", "lat": 48.409, "lon": 7.415},
{"name": "Neuve-Église", "lat": 48.355, "lon": 7.574},
{"name": "Niedernai", "lat": 48.359, "lon": 7.579},
{"name": "Nordhouse", "lat": 48.399, "lon": 7.414},
{"name": "Nothalten", "lat": 48.397, "lon": 7.418},
{"name": "Obernai", "lat": 48.448, "lon": 7.511},
{"name": "Ohnenheim", "lat": 48.223, "lon": 7.616},
{"name": "Orschwiller", "lat": 48.376, "lon": 7.413},
{"name": "Osthouse", "lat": 48.303, "lon": 7.719},
{"name": "Reichsfeld", "lat": 48.361, "lon": 7.421},
{"name": "Rhinau", "lat": 48.405, "lon": 7.753},
{"name": "Richtolsheim", "lat": 48.192, "lon": 7.588},
{"name": "Rosheim", "lat": 48.488, "lon": 7.515},
{"name": "Rossfeld", "lat": 48.209, "lon": 7.614},
{"name": "Saasenheim", "lat": 48.247, "lon": 7.525},
{"name": "Saint-Martin", "lat": 48.388, "lon": 7.423},
{"name": "Saint-Maurice", "lat": 48.391, "lon": 7.421},
{"name": "Saint-Pierre", "lat": 48.389, "lon": 7.424},
{"name": "Saint-Pierre-Bois", "lat": 48.392, "lon": 7.421},
{"name": "Sand", "lat": 48.266, "lon": 7.694},
{"name": "Schaeffersheim", "lat": 48.243, "lon": 7.599},
{"name": "Scherwiller", "lat": 48.387, "lon": 7.459},
{"name": "Schwobsheim", "lat": 48.265, "lon": 7.656},
{"name": "Sélestat", "lat": 48.270, "lon": 7.453},
{"name": "Sermersheim", "lat": 48.208, "lon": 7.670},
{"name": "Stotzheim", "lat": 48.261, "lon": 7.562},
{"name": "Sundhouse", "lat": 48.357, "lon": 7.701},
{"name": "Thanvillé", "lat": 48.381, "lon": 7.392},
{"name": "Triembach-au-Val", "lat": 48.366, "lon": 7.419},
{"name": "Uttenheim", "lat": 48.175, "lon": 7.719},
{"name": "Valff", "lat": 48.359, "lon": 7.540},
{"name": "La Vancelle", "lat": 48.388, "lon": 7.433},
{"name": "Villé", "lat": 48.370, "lon": 7.425},
{"name": "Westhouse", "lat": 48.401, "lon": 7.419},
{"name": "Witternheim", "lat": 48.171, "lon": 7.682},
{"name": "Wittisheim", "lat": 48.158, "lon": 7.690},
{"name": "Zellwiller", "lat": 48.319, "lon": 7.632},
{"name": "Algolsheim", "lat": 48.103, "lon": 7.701},
{"name": "Altenach", "lat": 47.747, "lon": 7.096},
{"name": "Altkirch", "lat": 47.629, "lon": 7.111},
{"name": "Ammerschwihr", "lat": 48.091, "lon": 7.566},
{"name": "Bernwiller", "lat": 47.746, "lon": 7.080},
{"name": "Andolsheim", "lat": 48.089, "lon": 7.722},
{"name": "Appenwihr", "lat": 48.076, "lon": 7.620},
{"name": "Artzenheim", "lat": 48.099, "lon": 7.743},
{"name": "Aspach", "lat": 47.758, "lon": 7.136},
{"name": "Aspach-le-Bas", "lat": 47.767, "lon": 7.158},
{"name": "Aspach-Michelbach", "lat": 47.755, "lon": 7.125},
{"name": "Attenschwiller", "lat": 47.824, "lon": 7.255},
{"name": "Aubure", "lat": 48.026, "lon": 7.460},
{"name": "Baldersheim", "lat": 47.823, "lon": 7.311},
{"name": "Balgau", "lat": 48.088, "lon": 7.707},
{"name": "Ballersdorf", "lat": 47.706, "lon": 7.239},
{"name": "Balschwiller", "lat": 47.750, "lon": 7.099},
{"name": "Baltzenheim", "lat": 48.085, "lon": 7.735},
{"name": "Bantzenheim", "lat": 48.091, "lon": 7.738},
{"name": "Bartenheim", "lat": 47.601, "lon": 7.276},
{"name": "Battenheim", "lat": 48.070, "lon": 7.650},
{"name": "Beblenheim", "lat": 48.093, "lon": 7.552},
{"name": "Bellemagny", "lat": 47.702, "lon": 7.214},
{"name": "Bendorf", "lat": 47.706, "lon": 7.239},
{"name": "Bennwihr", "lat": 48.084, "lon": 7.540},
{"name": "Berentzwiller", "lat": 47.776, "lon": 7.181},
{"name": "Bergheim", "lat": 48.084, "lon": 7.534},
{"name": "Bergholtz", "lat": 48.018, "lon": 7.504},
{"name": "Bergholtzzell", "lat": 48.014, "lon": 7.492},
{"name": "Berrwiller", "lat": 47.760, "lon": 7.138},
{"name": "Bettendorf", "lat": 47.746, "lon": 7.089},
{"name": "Bettlach", "lat": 47.726, "lon": 7.069},
{"name": "Biederthal", "lat": 47.657, "lon": 7.077},
{"name": "Biesheim", "lat": 48.084, "lon": 7.816},
{"name": "Biltzheim", "lat": 48.097, "lon": 7.759},
{"name": "Bischwihr", "lat": 48.094, "lon": 7.563},
{"name": "Bisel", "lat": 47.689, "lon": 7.246},
{"name": "Bitschwiller-lès-Thann", "lat": 47.814, "lon": 7.226},
{"name": "Blodelsheim", "lat": 48.068, "lon": 7.643},
{"name": "Blotzheim", "lat": 47.597, "lon": 7.295},
{"name": "Bollwiller", "lat": 47.839, "lon": 7.258},
{"name": "Le Bonhomme", "lat": 48.132, "lon": 7.211},
{"name": "Bourbach-le-Bas", "lat": 47.812, "lon": 7.231},
{"name": "Bourbach-le-Haut", "lat": 47.822, "lon": 7.218},
{"name": "Bouxwiller", "lat": 47.777, "lon": 7.175},
{"name": "Bréchaumont", "lat": 47.706, "lon": 7.239},
{"name": "Breitenbach-Haut-Rhin", "lat": 48.008, "lon": 7.470},
{"name": "Bretten", "lat": 47.731, "lon": 7.064},
{"name": "Brinckheim", "lat": 47.834, "lon": 7.289},
{"name": "Bruebach", "lat": 47.821, "lon": 7.267},
{"name": "Brunstatt-Didenheim", "lat": 47.792, "lon": 7.291},
{"name": "Buethwiller", "lat": 47.726, "lon": 7.077},
{"name": "Buhl", "lat": 47.836, "lon": 7.272},
{"name": "Burnhaupt-le-Bas", "lat": 47.838, "lon": 7.268},
{"name": "Burnhaupt-le-Haut", "lat": 47.847, "lon": 7.260},
{"name": "Buschwiller", "lat": 47.595, "lon": 7.281},
{"name": "Carspach", "lat": 47.696, "lon": 7.237},
{"name": "Cernay", "lat": 47.817, "lon": 7.242},
{"name": "Chalampé", "lat": 48.074, "lon": 7.638},
{"name": "Chavannes-sur-l'Étang", "lat": 47.706, "lon": 7.239},
{"name": "Colmar", "lat": 48.080, "lon": 7.357},
{"name": "Courtavon", "lat": 47.694, "lon": 7.248},
{"name": "Dannemarie", "lat": 47.630, "lon": 7.174},
{"name": "Dessenheim", "lat": 48.075, "lon": 7.627},
{"name": "Diefmatten", "lat": 47.706, "lon": 7.239},
{"name": "Dietwiller", "lat": 47.788, "lon": 7.320},
{"name": "Dolleren", "lat": 48.030, "lon": 7.447},
{"name": "Durlinsdorf", "lat": 47.706, "lon": 7.239},
{"name": "Durmenach", "lat": 47.656, "lon": 7.085},
{"name": "Durrenentzen", "lat": 47.706, "lon": 7.239},
{"name": "Eglingen", "lat": 47.689, "lon": 7.245},
{"name": "Eguisheim", "lat": 48.033, "lon": 7.316},
{"name": "Elbach", "lat": 47.743, "lon": 7.121},
{"name": "Emlingen", "lat": 47.689, "lon": 7.247},
{"name": "Saint-Bernard", "lat": 47.706, "lon": 7.239},
{"name": "Ensisheim", "lat": 48.036, "lon": 7.348},
{"name": "Eschbach-au-Val", "lat": 47.819, "lon": 7.223},
{"name": "Eschentzwiller", "lat": 47.706, "lon": 7.239},
{"name": "Eteimbes", "lat": 47.706, "lon": 7.239},
{"name": "Falkwiller", "lat": 47.732, "lon": 7.070},
{"name": "Feldbach", "lat": 47.768, "lon": 7.159},
{"name": "Feldkirch", "lat": 47.711, "lon": 7.159},
{"name": "Fellering", "lat": 48.039, "lon": 7.422},
{"name": "Ferrette", "lat": 47.568, "lon": 7.102},
{"name": "Fessenheim", "lat": 48.088, "lon": 7.642},
{"name": "Fislis", "lat": 48.019, "lon": 7.496},
{"name": "Flaxlanden", "lat": 47.779, "lon": 7.170},
{"name": "Folgensbourg", "lat": 47.542, "lon": 7.085},
{"name": "Fortschwihr", "lat": 48.092, "lon": 7.569},
{"name": "Franken", "lat": 47.756, "lon": 7.129},
{"name": "Fréland", "lat": 48.047, "lon": 7.388},
{"name": "Friesen", "lat": 47.737, "lon": 7.087},
{"name": "Frœningen", "lat": 47.559, "lon": 7.095},
{"name": "Fulleren", "lat": 47.747, "lon": 7.096},
{"name": "Galfingue", "lat": 47.686, "lon": 7.239},
{"name": "Geishouse", "lat": 48.015, "lon": 7.482},
{"name": "Geispitzen", "lat": 47.706, "lon": 7.239},
{"name": "Geiswasser", "lat": 47.706, "lon": 7.239},
{"name": "Gildwiller", "lat": 47.732, "lon": 7.070},
{"name": "Goldbach-Altenbach", "lat": 47.825, "lon": 7.189},
{"name": "Gommersdorf", "lat": 47.706, "lon": 7.239},
{"name": "Griesbach-au-Val", "lat": 47.820, "lon": 7.216},
{"name": "Grussenheim", "lat": 48.087, "lon": 7.621},
{"name": "Gueberschwihr", "lat": 48.089, "lon": 7.539},
{"name": "Guebwiller", "lat": 47.896, "lon": 7.202},
{"name": "Guémar", "lat": 48.035, "lon": 7.365},
{"name": "Guevenatten", "lat": 47.706, "lon": 7.239},
{"name": "Guewenheim", "lat": 47.750, "lon": 7.100},
{"name": "Gundolsheim", "lat": 48.047, "lon": 7.324},
{"name": "Gunsbach", "lat": 48.034, "lon": 7.313},
{"name": "Habsheim", "lat": 47.804, "lon": 7.319},
{"name": "Hagenbach", "lat": 47.706, "lon": 7.239},
{"name": "Hagenthal-le-Bas", "lat": 47.577, "lon": 7.283},
{"name": "Hagenthal-le-Haut", "lat": 47.580, "lon": 7.275},
{"name": "Hartmannswiller", "lat": 47.881, "lon": 7.200},
{"name": "Hattstatt", "lat": 48.050, "lon": 7.348},
{"name": "Hausgauen", "lat": 47.706, "lon": 7.239},
{"name": "Hecken", "lat": 47.706, "lon": 7.239},
{"name": "Hégenheim", "lat": 47.557, "lon": 7.289},
{"name": "Heidwiller", "lat": 47.612, "lon": 7.264},
{"name": "Heimersdorf", "lat": 47.706, "lon": 7.239},
{"name": "Heimsbrunn", "lat": 47.804, "lon": 7.317},
{"name": "Heiteren", "lat": 47.706, "lon": 7.239},
{"name": "Heiwiller", "lat": 47.700, "lon": 7.248},
{"name": "Helfrantzkirch", "lat": 47.706, "lon": 7.239},
{"name": "Herrlisheim-près-Colmar", "lat": 48.063, "lon": 7.403},
{"name": "Hésingue", "lat": 47.597, "lon": 7.302},
{"name": "Hettenschlag", "lat": 47.706, "lon": 7.239},
{"name": "Hindlingen", "lat": 47.706, "lon": 7.239},
{"name": "Hirsingue", "lat": 47.671, "lon": 7.213},
{"name": "Hirtzbach", "lat": 47.688, "lon": 7.241},
{"name": "Hirtzfelden", "lat": 47.706, "lon": 7.239},
{"name": "Hochstatt", "lat": 47.706, "lon": 7.239},
{"name": "Hohrod", "lat": 48.131, "lon": 7.225}
]
